City_ID,City,Lat,Lng,Max Temp,Humidity,Cloudiness,Wind Speed,Country,Date
0,ushuaia,-54.8,-68.3,281.96,61,0,9.26,AR,1680384593
1,vaini,-21.2,-175.2,301.24,78,40,5.14,TO,1680384780
2,xinmin,41.9908,122.8253,281.5,46,0,3.89,CN,1680384780
3,punta arenas,-53.15,-70.9167,284.21,62,75,7.2,CL,1680384682
4,sept-iles,50.2001,-66.3821,272.44,95,100,6.69,CA,1680384616
5,pevek,69.7008,170.3133,249.5,93,100,4.41,RU,1680384781
6,bredasdorp,-34.5322,20.0403,289.21,95,0,2.09,ZA,1680384782
7,cape town,-33.9258,18.4232,290.99,85,0,6.17,ZA,1680384350
8,dikson,73.5069,80.5464,257.98,100,100,1.74,RU,1680384782
9,luanda,-8.8368,13.2343,300.15,83,20,1.54,AO,1680384600
10,albany,42.6001,-73.9662,295.25,31,2,3.96,US,1680384601
11,abbeville,50.1,1.8333,282.18,92,100,6.29,FR,1680384783
12,ponta do sol,32.6667,-17.1,291.5,71,0,2.55,PT,1680384783
13,ribeira grande,38.5167,-28.7,290.8,93,92,9.39,PT,1680384784
14,new norfolk,-42.7826,147.0587,285.88,80,100,0.45,AU,1680384784
15,puerto ayora,-0.7393,-90.3518,304.13,88,91,3.58,EC,1680384784
16,raga,8.4596,25.678,297.87,16,31,1.17,SS,1680384785
17,nikolskoye,59.7035,30.7861,273.09,97,100,2.24,RU,1680384785
18,urubicha,-15.3833,-62.95,299.85,70,89,1.01,BO,1680384785
19,katsuura,35.1333,140.3,287.98,69,100,6.65,JP,1680384785
20,kalevala,65.2,31.1667,264.73,94,80,2.58,RU,1680384785
21,dormont,40.3959,-80.0331,281.36,82,100,10.8,US,1680384786
22,beringovskiy,63.05,179.3167,264.84,66,69,8.07,RU,1680384786
23,ilulissat,69.2167,-51.1,260.16,72,20,3.09,GL,1680384786
24,mar del plata,-38.0023,-57.5575,292.64,68,0,4.63,AR,1680384719
25,tiksi,71.6872,128.8694,256.34,80,96,11.42,RU,1680384787
26,hermanus,-34.4187,19.2345,290.26,88,1,4.0,ZA,1680384787
27,port alfred,-33.5906,26.891,292.69,90,42,0.45,ZA,1680384787
28,saint george,37.1041,-113.5841,292.56,28,0,2.57,US,1680384678
29,norman wells,65.282,-126.8329,262.17,73,100,0.0,CA,1680384788
30,castro,-24.7911,-50.0119,292.73,80,51,0.73,BR,1680384788
31,cabra,37.4725,-4.4421,286.09,80,22,1.45,ES,1680384789
32,linkou,45.3,130.2833,281.72,53,39,2.04,CN,1680384789
33,qaanaaq,77.484,-69.3632,248.51,71,5,2.12,GL,1680384790
34,isla mujeres,21.2311,-86.731,302.18,69,1,4.94,MX,1680384790
35,grootfontein,-19.5667,18.1167,289.91,77,50,1.03,NA,1680384790
36,kaeo,-35.1,173.7833,293.33,97,100,0.88,NZ,1680384790
37,yinchuan,38.4681,106.2731,281.17,65,100,6.06,CN,1680384602
38,longyearbyen,78.2186,15.6401,261.06,72,75,4.12,SJ,1680384791
39,taoudenni,22.6783,-3.9836,302.44,6,0,4.62,ML,1680384791
40,suluktu,39.9337,69.57,283.86,46,86,2.7,KG,1680384791
41,hobart,-42.8794,147.3294,286.07,79,75,4.12,AU,1680384792
42,orangeburg,33.4918,-80.8557,297.43,73,20,6.69,US,1680384792
43,butaritari,3.0707,172.7902,300.61,76,100,5.72,KI,1680384792
44,lebu,-37.6167,-73.65,288.57,88,99,4.02,CL,1680384792
45,kodiak,57.79,-152.4072,276.88,41,0,14.4,US,1680384793
46,hithadhoo,-0.6,73.0833,300.84,71,94,2.38,MV,1680384793
47,aktau,43.65,51.2,280.47,86,100,9.01,KZ,1680384793
48,bengkulu,-3.8004,102.2655,296.23,88,96,1.93,ID,1680384793
49,rikitea,-23.1203,-134.9692,300.13,80,29,7.17,PF,1680384793
50,goba,7.0167,39.9833,283.74,86,79,1.71,ET,1680384794
51,barrow,71.2906,-156.7887,255.16,92,100,4.12,US,1680384794
52,los llanos de aridane,28.6585,-17.9182,291.01,83,0,6.69,ES,1680384794
53,venice,27.0998,-82.4543,302.67,84,0,3.6,US,1680384692
54,tomatlan,19.9333,-105.25,304.91,32,52,4.41,MX,1680384795
55,nanortalik,60.1432,-45.2371,269.96,83,15,1.86,GL,1680384795
56,moranbah,-22.0016,148.0466,294.1,88,100,6.65,AU,1680384795
57,clyde river,70.4692,-68.5914,250.28,77,20,5.14,CA,1680384796
58,cidreira,-30.1811,-50.2056,294.74,59,94,6.21,BR,1680384796
59,shebunino,46.4339,141.8603,274.76,70,6,1.09,RU,1680384796
60,baykit,61.67,96.37,250.16,100,90,0.41,RU,1680384796
61,kapit,2.0167,112.9333,294.78,99,97,0.66,MY,1680384796
62,basco,20.4487,121.9702,298.31,81,9,3.32,PH,1680384797
63,east london,-33.0153,27.9116,293.78,86,62,4.65,ZA,1680384797
64,arraial do cabo,-22.9661,-42.0278,299.07,89,40,7.2,BR,1680384797
65,kapaa,22.0752,-159.319,297.33,89,100,8.75,US,1680384797
66,anloga,5.7947,0.8973,301.15,80,96,5.36,GH,1680384798
67,busselton,-33.65,115.3333,287.11,91,2,3.45,AU,1680384798
68,padang,-0.9492,100.3543,297.41,85,100,1.5,ID,1680384798
69,atambua,-9.1061,124.8925,295.57,89,100,1.31,ID,1680384798
70,jamestown,42.097,-79.2353,278.92,87,100,12.35,US,1680384799
71,esperance,-33.8667,121.9,291.02,85,100,5.44,AU,1680384799
72,manicore,-5.8092,-61.3003,296.23,99,100,0.61,BR,1680384799
73,ascension,30.2169,-90.9001,303.26,36,92,3.88,US,1680384799
74,elko,41.0002,-115.5012,284.16,54,100,8.7,US,1680384800
75,manggar,-2.8833,108.2667,298.52,83,62,1.3,ID,1680384800
76,ahipara,-35.1667,173.1667,292.88,84,100,0.76,NZ,1680384800
77,yellowknife,62.456,-114.3525,262.44,57,100,7.72,CA,1680384565
78,mataura,-46.1927,168.8643,286.19,98,100,2.34,NZ,1680384800
79,marystown,47.1666,-55.1483,275.85,100,100,0.45,CA,1680384801
80,bethel,41.3712,-73.414,295.62,52,0,6.17,US,1680384801
81,iqaluit,63.7506,-68.5145,259.0,77,20,1.54,CA,1680384614
82,beloha,-25.1667,45.05,295.84,85,100,4.08,MG,1680384801
83,yukamenskoye,57.8865,52.2416,273.41,94,90,2.95,RU,1680384802
84,atuona,-9.8,-139.0333,300.22,77,19,6.98,PF,1680384802
85,varhaug,58.6147,5.6457,275.87,75,6,0.72,NO,1680384802
86,iwanai,42.9744,140.5089,277.68,82,54,1.32,JP,1680384802
87,mount gambier,-37.8333,140.7667,280.86,89,16,0.97,AU,1680384518
88,nalut,30.3333,10.85,294.69,13,4,3.09,LY,1680384803
89,hilo,19.7297,-155.09,302.19,73,75,4.63,US,1680384803
90,khatanga,71.9667,102.5,266.33,92,100,9.18,RU,1680384803
91,ipanguacu,-5.4983,-36.855,299.92,72,62,4.16,BR,1680384803
92,zhuhai,22.2769,113.5678,295.03,94,40,4.63,CN,1680384663
93,dustlik,40.5247,68.0358,290.84,58,85,2.78,UZ,1680384804
94,kurilsk,45.2333,147.8833,272.54,81,16,4.53,RU,1680384804
95,upernavik,72.7868,-56.1549,244.63,98,43,4.37,GL,1680384804
96,avarua,-21.2078,-159.775,299.18,94,75,3.09,CK,1680384804
97,guerrero negro,27.9769,-114.0611,292.11,49,0,8.48,MX,1680384805
98,petropavlovsk-kamchatskiy,53.0452,158.6483,271.48,64,0,4.0,RU,1680384805
99,deputatskiy,69.3,139.9,244.09,98,55,2.25,RU,1680384805
100,bogorodskoye,56.55,37.8833,275.93,98,100,3.81,RU,1680384805
101,grand gaube,-20.0064,57.6608,298.37,77,4,5.12,MU,1680384806
102,davidson,36.1501,-86.7833,293.4,30,0,7.2,US,1680384806
103,diffa,13.3154,12.6113,299.37,11,18,4.55,NE,1680384806
104,fairbanks,64.8378,-147.7164,270.42,54,40,3.09,US,1680384545
105,vejle,55.7093,9.5357,276.38,76,1,2.24,DK,1680384806
106,tuktoyaktuk,69.4541,-133.0374,252.15,71,20,6.17,CA,1680384807
107,port hawkesbury,45.6169,-61.3485,274.92,99,100,6.26,CA,1680384807
108,marzuq,14.4,46.4667,296.13,60,100,1.85,YE,1680384807
109,leningradskiy,69.3833,178.4167,256.36,93,100,14.33,RU,1680384807
110,souillac,-20.5167,57.5167,298.36,83,20,3.09,MU,1680384808
111,petrykiv,49.5332,25.5809,280.08,89,78,2.69,UA,1680384808
112,san cristobal,7.7669,-72.225,292.25,93,100,1.38,VE,1680384808
113,carnarvon,-24.8667,113.6333,296.84,78,61,5.56,AU,1680384808
114,siguiri,11.6667,-9.5,306.65,19,88,1.97,GN,1680384809
115,saint-pierre,-21.3393,55.4781,297.97,83,0,2.57,RE,1680384809
116,camopi,3.1655,-52.3158,296.12,91,48,2.16,GF,1680384809
117,shalya,57.2471,58.7298,275.24,92,100,2.6,RU,1680384809
118,sao filipe,14.8961,-24.4956,299.95,51,0,2.46,CV,1680384810
119,faanui,-16.4833,-151.75,301.16,72,0,3.41,PF,1680384810
120,kayankulam,9.1833,76.5,298.71,84,50,1.76,IN,1680384810
121,pio xii,-3.8325,-45.1525,295.95,99,99,2.36,BR,1680384811
122,ukiah,39.1502,-123.2078,285.09,86,100,2.06,US,1680384622
123,ganzhou,28.8184,115.4327,288.82,81,0,0.96,CN,1680384811
124,mahebourg,-20.4081,57.7,298.31,83,20,3.09,MU,1680384811
125,huarmey,-10.0681,-78.1522,298.97,78,100,3.28,PE,1680384812
126,lagoa,39.05,-27.9833,288.95,91,100,11.15,PT,1680384812
127,kaitangata,-46.2817,169.8464,284.78,95,83,4.46,NZ,1680384812
128,shimoda,34.6667,138.95,285.43,83,96,7.29,JP,1680384813
129,komotini,41.1228,25.3964,285.4,95,71,0.68,GR,1680384814
130,codajas,-3.8367,-62.0569,296.51,98,99,1.41,BR,1680384814
131,kendari,-3.945,122.4989,296.73,95,100,1.26,ID,1680384814
132,qasigiannguit,68.8193,-51.1922,260.29,94,33,1.87,GL,1680384814
133,magrath,49.4167,-112.8686,282.79,41,96,7.76,CA,1680384815
134,show low,34.2542,-110.0298,291.31,12,0,6.69,US,1680384554
135,cabo san lucas,22.8909,-109.9124,302.76,36,75,1.54,MX,1680384779
136,lasa,46.6166,10.7002,280.64,90,100,1.88,IT,1680384815
137,belaya gora,68.5333,146.4167,248.74,91,96,1.38,RU,1680384815
138,gat,31.61,34.7642,286.7,73,0,1.49,IL,1680384816
139,port-gentil,-0.7193,8.7815,299.13,94,20,1.54,GA,1680384816
140,narsaq,60.9167,-46.05,273.27,78,69,3.38,GL,1680384816
141,puerto quijarro,-17.7833,-57.7667,299.67,74,92,0.99,BO,1680384817
142,strezhevoy,60.7333,77.5889,271.35,78,100,6.72,RU,1680384817
143,tasiilaq,65.6145,-37.6368,272.24,85,100,1.04,GL,1680384817
144,ust-karsk,52.7011,118.8077,269.26,68,100,4.04,RU,1680384817
145,baft,29.234,56.6057,281.43,35,0,0.83,IR,1680384817
146,san patricio,28.017,-97.5169,304.12,52,99,6.13,US,1680384818
147,champerico,14.3,-91.9167,306.45,62,87,5.35,GT,1680384818
148,provideniya,64.3833,-173.3,265.85,87,98,4.07,RU,1680384818
149,sobolevo,54.4299,31.8996,280.37,91,100,5.38,RU,1680384818
150,bamora,24.0552,78.0909,296.69,35,40,0.77,IN,1680384818
151,bac lieu,9.285,105.7244,299.02,81,81,2.12,VN,1680384819
152,kamaishi,39.2667,141.8833,279.93,75,17,3.27,JP,1680384819
153,tuatapere,-46.1333,167.6833,284.08,79,100,5.36,NZ,1680384819
154,moundou,8.5667,16.0833,304.38,35,43,1.21,TD,1680384819
155,shaowu,27.3409,117.4831,288.4,96,0,0.9,CN,1680384819
156,isangel,-19.55,169.2667,301.61,73,3,1.67,VU,1680384819
157,beyneu,45.3167,55.2,285.42,48,100,1.33,KZ,1680384820
158,samarai,-10.6167,150.6667,301.38,74,100,3.65,PG,1680384820
159,shieli,44.1667,66.75,280.61,16,66,12.49,KZ,1680384820
160,gashua,12.871,11.0482,298.84,11,25,4.18,NG,1680384820
161,cherskiy,68.75,161.3,245.21,99,100,1.82,RU,1680384821
162,saskylakh,71.9167,114.0833,264.92,90,100,7.01,RU,1680384821
163,luderitz,-26.6481,15.1594,289.35,90,14,2.42,NA,1680384821
164,geraldton,-28.7667,114.6,290.38,88,75,1.54,AU,1680384821
165,muisne,0.6,-80.0333,300.98,75,98,3.16,EC,1680384821
166,jeremie,18.65,-74.1167,299.95,69,27,2.92,HT,1680384822
167,torbay,47.6666,-52.7314,276.35,59,75,6.17,CA,1680384822
168,lokosovo,61.1333,74.8167,272.6,75,100,7.43,RU,1680384822
169,jibuti,11.5,42.5,298.89,71,71,3.51,DJ,1680384822
170,belyy yar,53.6039,91.3903,258.09,72,0,1.0,RU,1680384822
171,walvis bay,-22.9575,14.5053,289.05,86,12,2.51,NA,1680384823
172,anadyr,64.75,177.4833,258.43,77,0,12.0,RU,1680384823
173,victoria,22.2855,114.1577,295.34,93,99,1.34,HK,1680384823
174,saldanha,-33.0117,17.9442,290.18,89,0,4.65,ZA,1680384823
175,tual,-5.6667,132.75,301.29,73,100,2.57,ID,1680384823
176,thompson,55.7435,-97.8558,266.24,30,75,3.09,CA,1680384824
177,kavieng,-2.5744,150.7967,300.48,79,100,1.64,PG,1680384824
178,bluff,-46.6,168.3333,286.37,70,100,7.15,NZ,1680384824
179,bambous virieux,-20.3428,57.7575,298.29,83,20,3.09,MU,1680384824
180,puerto madryn,-42.7692,-65.0385,298.29,27,88,8.59,AR,1680384565
181,port elizabeth,-33.918,25.5701,292.77,94,2,0.89,ZA,1680384710
182,kaabong,3.4836,34.1492,291.98,71,73,2.38,UG,1680384825
183,nadym,65.5333,72.5167,274.07,98,100,9.42,RU,1680384825
184,chuy,-33.6971,-53.4616,289.5,70,12,3.06,UY,1680384825
185,severo-kurilsk,50.6789,156.125,273.21,92,52,7.8,RU,1680384826
186,mairana,-18.1167,-63.9333,289.22,95,45,0.94,BO,1680384826
187,smithers,54.7804,-127.1743,277.33,56,75,5.14,CA,1680384826
188,harper,4.375,-7.7169,299.69,87,23,2.69,LR,1680384826
189,tommot,58.9564,126.2925,257.42,95,100,2.16,RU,1680384827
190,dongsheng,39.8161,109.9776,283.33,74,100,10.84,CN,1680384827
191,sao felix do xingu,-6.6447,-51.995,296.97,93,76,1.01,BR,1680384827
192,mercedes,-34.6515,-59.4307,294.7,37,15,3.51,AR,1680384827
193,constitucion,-35.3333,-72.4167,291.54,69,59,6.81,CL,1680384827
194,portree,57.4129,-6.1942,280.11,96,100,1.17,GB,1680384828
195,pangkalanbuun,-2.6833,111.6167,296.08,99,99,0.92,ID,1680384828
196,san-pedro,4.7485,-6.6363,299.43,88,67,2.67,CI,1680384828
197,airai,-8.9266,125.4092,288.43,94,100,0.96,TL,1680384828
198,lavrentiya,65.5833,-171.0,269.67,88,100,3.37,RU,1680384829
199,privolzhsk,57.3808,41.2886,275.68,93,100,3.08,RU,1680384829
200,merauke,-8.4667,140.3333,299.91,81,24,3.77,ID,1680384829
201,ligayan,4.6533,119.4706,300.16,80,100,7.47,PH,1680384829
202,bathsheba,13.2167,-59.5167,300.49,74,40,8.23,BB,1680384829
203,ancud,-41.8697,-73.8203,286.03,82,73,2.72,CL,1680384830
204,soure,-0.7167,-48.5233,297.8,87,100,2.71,BR,1680384727
205,paamiut,61.994,-49.6678,269.82,68,100,5.57,GL,1680384830
206,tautira,-17.7333,-149.15,301.24,75,6,5.68,PF,1680384830
207,veriora,58.0079,27.3551,271.7,92,97,4.65,EE,1680384830
208,brattvag,62.6002,6.4434,276.64,75,0,3.6,NO,1680384830
209,labuhan,-6.8844,112.2051,297.7,83,100,1.69,ID,1680384831
210,araouane,18.9048,-3.5265,300.68,6,0,4.17,ML,1680384831
211,kupang,-10.1667,123.5833,296.47,100,20,1.03,ID,1680384831
212,ondjiva,-17.0667,15.7333,297.17,73,82,0.51,AO,1680384831
213,young,-32.6833,-57.6333,290.38,48,0,2.22,UY,1680384831
214,gravelbourg,49.8834,-106.5512,277.3,97,98,4.39,CA,1680384832
215,chumikan,54.7183,135.315,269.97,93,98,1.07,RU,1680384832
216,takoradi,4.8845,-1.7554,300.12,84,21,3.16,GH,1680384832
217,innisfail,-17.5333,146.0333,297.69,89,60,0.83,AU,1680384617
218,ghazipur,25.5833,83.5667,293.6,65,3,1.72,IN,1680384833
219,baiyin,36.5583,104.2081,275.55,73,100,8.09,CN,1680384833
220,homer,59.6425,-151.5483,276.08,46,0,4.47,US,1680384833
221,boffa,10.1667,-14.0333,298.99,84,0,2.13,GN,1680384833
222,ippy,6.2679,21.2247,299.71,39,89,1.27,CF,1680384833
223,saint-francois,46.4154,3.9054,280.84,89,0,3.6,FR,1680384834
224,chopan,24.5167,83.0333,295.78,57,25,1.05,IN,1680384834
225,skjervoy,70.0311,20.9714,270.15,59,100,5.19,NO,1680384834
226,gubkinskiy,64.434,76.5026,274.23,89,100,11.61,RU,1680384834
227,alofi,-19.0595,-169.9187,301.09,78,85,8.23,NU,1680384834
228,yatou,37.15,122.3833,282.77,32,0,1.34,CN,1680384835
229,touros,-5.1989,-35.4608,299.92,78,99,5.32,BR,1680384835
230,yining,29.0361,114.5636,287.6,86,0,1.11,CN,1680384835
231,cap malheureux,-19.9842,57.6142,298.41,77,4,5.19,MU,1680384835
232,zhigansk,66.7697,123.3711,249.77,99,95,6.12,RU,1680384836
233,bandarbeyla,9.4942,50.8122,300.17,71,21,1.28,SO,1680384836
234,fortuna,40.5982,-124.1573,283.67,92,100,0.89,US,1680384652
235,skvyra,49.7318,29.6657,282.33,85,100,3.57,UA,1680384836
236,porto nacional,-10.7081,-48.4172,301.15,88,86,1.7,BR,1680384836
237,fengcheng,40.4536,124.0717,282.43,33,0,1.62,CN,1680384836
238,mindyak,54.0231,58.7891,271.99,89,99,0.46,RU,1680384837
239,mbeya,-8.9,33.45,288.07,97,96,1.87,TZ,1680384837
240,hasaki,35.7333,140.8333,286.6,56,62,6.44,JP,1680384559
241,husavik,66.0449,-17.3389,273.37,78,2,6.69,IS,1680384838
242,progreso,21.2833,-89.6667,308.77,74,15,8.52,MX,1680384838
243,manati,18.4275,-66.4921,300.87,71,10,7.86,PR,1680384709
244,port blair,11.6667,92.75,298.17,88,40,1.03,IN,1680384838
245,chapleau,47.8405,-83.4034,270.2,31,20,7.2,CA,1680384838
246,dakar,14.6937,-17.4441,300.64,66,0,3.93,SN,1680384461
247,shache,38.4167,77.2406,286.42,28,95,1.39,CN,1680384839
248,dwarka,22.2394,68.9678,297.5,72,3,4.93,IN,1680384839
249,avera,33.194,-82.5271,300.03,45,99,7.67,US,1680384839
250,karratha,-20.7377,116.8463,299.97,75,73,2.27,AU,1680384839
251,caudry,50.1249,3.4119,280.77,95,100,6.3,FR,1680384583
252,koshurnikovo,54.1667,93.3,255.89,91,7,1.08,RU,1680384840
253,portland,45.5234,-122.6762,283.42,83,75,4.47,US,1680384743
254,havre-saint-pierre,50.2334,-63.5986,273.35,86,100,5.66,CA,1680384840
255,ixtapa,20.7,-105.2,297.72,73,75,6.69,MX,1680384840
256,iaciara,-14.0958,-46.6317,299.75,48,31,0.83,BR,1680384841
257,eura,61.1333,22.1333,270.03,95,8,1.92,FI,1680384841
258,sao joao da barra,-21.6403,-41.0511,301.2,86,87,2.47,BR,1680384841
259,hobyo,5.3505,48.5268,301.62,76,82,5.79,SO,1680384841
260,piacabucu,-10.4056,-36.4344,298.95,79,100,3.34,BR,1680384841
261,bideford,51.0179,-4.2046,282.21,86,32,6.52,GB,1680384842
262,kruisfontein,-34.0033,24.7314,287.98,75,0,2.06,ZA,1680384842
263,maniitsoq,65.4167,-52.9,266.61,54,66,3.15,GL,1680384842
264,jalu,29.0331,21.5482,293.36,18,0,4.05,LY,1680384843
265,leh,34.1667,77.5833,268.39,87,94,2.82,IN,1680384843
266,pemangkat,1.1667,108.9667,298.35,83,84,1.63,ID,1680384843
267,cabedelo,-6.9811,-34.8339,301.52,76,100,4.86,BR,1680384843
268,baie-saint-paul,47.4411,-70.4986,276.52,87,100,0.92,CA,1680384843
269,morro bay,35.3658,-120.8499,294.48,56,6,5.68,US,1680384672
270,kavaratti,10.5669,72.642,300.35,68,8,2.93,IN,1680384844
271,shasta lake,40.6804,-122.3708,285.55,92,100,0.24,US,1680384844
272,bagdarin,54.4333,113.6,261.62,54,100,2.55,RU,1680384844
273,high level,58.5169,-117.136,269.21,93,100,3.09,CA,1680384845
274,safford,32.834,-109.7076,298.66,9,0,3.6,US,1680384845
275,crotone,39.0851,17.1178,286.59,61,100,6.33,IT,1680384845
276,ola,59.5833,151.2833,269.9,92,98,2.07,RU,1680384845
277,maldonado,-34.6667,-54.9167,292.16,72,21,2.42,UY,1680384846
278,kampot,10.6167,104.1833,297.18,78,100,0.6,KH,1680384846
279,sechura,-5.5569,-80.8222,302.03,68,89,6.84,PE,1680384846
280,bukene,-4.2333,32.8833,290.11,94,32,1.39,TZ,1680384846
281,ust-ishim,57.6935,71.1665,271.63,71,83,4.96,RU,1680384846
282,klaksvik,62.2266,-6.589,279.66,96,99,5.73,FO,1680384847
283,mokhsogollokh,61.4681,128.9203,254.41,89,78,4.29,RU,1680384847
284,san policarpo,12.1791,125.5072,298.79,81,29,2.38,PH,1680384847
285,kathu,7.9178,98.3332,299.05,75,38,2.72,TH,1680384847
286,la palma,33.8464,-118.0467,299.21,49,0,5.66,US,1680384847
287,saint-philippe,-21.3585,55.7679,297.92,83,45,5.06,RE,1680384848
288,atar,20.5169,-13.0499,303.31,7,0,3.52,MR,1680384848
289,koutsouras,35.0339,25.9469,289.32,80,52,4.59,GR,1680384848
290,saryozek,44.3583,77.9753,270.47,39,0,1.43,KZ,1680384848
291,kutum,14.2,24.6667,292.24,12,11,3.55,SD,1680384849
292,bilma,18.6853,12.9164,297.38,6,82,2.96,NE,1680384849
293,nargana,9.4428,-78.5906,299.49,82,100,7.14,PA,1680384849
294,havoysund,70.9963,24.6622,271.28,68,100,7.61,NO,1680384849
295,presidente dutra,-5.29,-44.49,296.97,95,100,1.4,BR,1680384849
296,achi,8.5682,-74.554,304.89,59,100,1.62,CO,1680384850
297,sarangani,5.4033,125.4636,299.83,81,93,4.22,PH,1680384850
298,yerbogachen,61.2767,108.0108,246.5,100,26,1.94,RU,1680384850
299,korla,41.7597,86.1469,278.54,22,0,1.6,CN,1680384850
300,ostrovnoy,68.0531,39.5131,265.66,89,90,3.31,RU,1680384850
301,edson,53.5835,-116.4356,280.23,26,0,1.54,CA,1680384851
302,georgetown,5.4112,100.3354,301.11,92,20,1.03,MY,1680384617
303,clyde,41.3042,-82.9752,279.01,76,84,8.73,US,1680384851
304,tessalit,20.1986,1.0114,299.04,8,0,4.44,ML,1680384851
305,santa maria,-29.6842,-53.8069,294.76,49,0,2.06,BR,1680384851
306,xining,36.6167,101.7667,275.53,85,100,0.96,CN,1680384852
307,khingansk,49.1167,131.1833,275.25,55,100,2.38,RU,1680384852
308,waipawa,-41.4122,175.5153,291.53,67,41,6.98,NZ,1680384852
309,hambantota,6.1241,81.1185,297.34,100,20,1.03,LK,1680384852
310,college,64.8569,-147.8028,270.41,54,40,3.09,US,1680384852
311,hegang,47.4,130.3667,278.67,53,100,1.41,CN,1680384853
312,broken hill,-31.95,141.4333,284.64,52,0,4.93,AU,1680384678
313,goderich,43.7501,-81.7165,274.33,80,100,9.77,CA,1680384853
314,mananjary,-21.2167,48.3333,297.56,88,98,1.15,MG,1680384853
315,zhangye,38.9342,100.4517,276.11,32,100,3.97,CN,1680384853
316,kaoma,-14.7833,24.8,290.61,98,100,2.04,ZM,1680384854
317,saravan,39.7196,45.6483,269.94,95,100,1.17,AM,1680384854
318,dzilam gonzalez,21.2833,-88.9333,303.38,58,26,5.19,MX,1680384854
319,alexandria,31.2156,29.9553,288.97,64,0,1.93,EG,1680384569
320,cayenne,4.9333,-52.3333,300.17,74,40,5.66,GF,1680384825
321,aklavik,68.2191,-135.0107,259.15,56,20,1.03,CA,1680384855
322,kahului,20.8947,-156.47,302.16,48,20,7.72,US,1680384855
323,taman,45.2117,36.7161,281.2,76,100,8.3,RU,1680384855
324,gidole,5.65,37.3667,287.96,73,37,0.8,ET,1680384855
325,port lincoln,-34.7333,135.8667,288.3,62,32,4.75,AU,1680384856
326,khuzhir,53.1939,107.3397,261.15,80,99,2.94,RU,1680384856
327,oberndorf,48.2905,8.5722,279.86,99,91,2.83,DE,1680384856
328,marrakesh,31.6315,-8.0083,296.19,46,0,4.63,MA,1680384647
329,sitka,57.0531,-135.33,279.09,70,75,2.57,US,1680384856
330,vila velha,-20.3297,-40.2925,300.12,78,40,0.51,BR,1680384630
331,biloela,-24.4167,150.5,294.33,65,98,2.31,AU,1680384857
332,te anau,-45.4167,167.7167,284.25,92,89,0.35,NZ,1680384857
333,chifeng,42.2683,118.9636,282.34,58,72,2.78,CN,1680384857
334,kenai,60.5544,-151.2583,276.2,44,0,6.69,US,1680384857
335,chokurdakh,70.6333,147.9167,242.87,100,99,3.22,RU,1680384858
336,orlik,52.5178,99.825,249.19,98,93,0.4,RU,1680384858
337,coolum beach,-26.5333,153.1,294.88,78,91,2.81,AU,1680384859
338,asau,46.4333,26.4,280.66,94,100,1.44,RO,1680384859
339,salalah,17.0151,54.0924,301.2,78,75,3.09,OM,1680384860
340,salinopolis,-0.6136,-47.3561,298.15,86,96,3.44,BR,1680384860
341,dingle,10.9995,122.6711,297.3,89,100,2.33,PH,1680384860
342,galle,6.0367,80.217,298.61,85,58,1.79,LK,1680384860
343,sisimiut,66.9395,-53.6735,259.7,72,16,5.11,GL,1680384860
344,mwinilunga,-11.7358,24.4293,289.93,99,100,1.15,ZM,1680384861
345,calama,-22.4667,-68.9333,297.42,41,40,10.8,CL,1680384861
346,alugan,12.2188,125.4808,298.58,82,27,2.19,PH,1680384861
347,coos bay,43.3665,-124.2179,283.32,71,100,9.26,US,1680384608
348,bisira,8.5196,-81.7115,292.23,71,75,3.78,PA,1680384862
349,port-cartier,50.0334,-66.8654,272.27,98,100,8.11,CA,1680384862
350,carutapera,-1.195,-46.02,296.57,93,100,1.25,BR,1680384862
351,kadhan,24.481,68.9859,296.84,66,0,5.13,PK,1680384862
352,ribeira do pombal,-10.8344,-38.5358,299.91,62,83,4.65,BR,1680384862
353,kirakira,-10.4544,161.9205,301.51,76,88,1.91,SB,1680384863
354,muscat,23.6139,58.5922,298.16,49,29,0.66,OM,1680384863
355,daru,-9.0763,143.2092,300.17,83,59,1.14,PG,1680384863
356,chichimila,20.6167,-88.2167,306.18,29,2,3.75,MX,1680384864
357,shihezi,44.3,86.0333,272.3,28,0,3.75,CN,1680384756
358,lebedinyy,58.5167,125.5167,254.41,100,100,1.47,RU,1680384865
359,eureka,40.8021,-124.1637,284.12,91,100,0.89,US,1680384803
360,aquiraz,-3.9014,-38.3911,301.2,78,68,2.38,BR,1680384737
361,cahir,52.3769,-7.9217,280.88,92,8,3.35,IE,1680384865
362,magan,39.9683,-3.931,288.44,63,37,8.47,ES,1680384866
363,moussoro,13.6408,16.4901,301.88,9,10,7.04,TD,1680384866
364,northam,51.0333,-4.2167,281.82,88,33,6.81,GB,1680384866
365,begunitsy,59.5855,29.3176,270.07,91,88,2.9,RU,1680384866
366,jiayuguan,39.8167,98.3,272.1,42,98,4.04,CN,1680384866
367,nizwa,22.9333,57.5333,298.34,35,36,1.59,OM,1680384866
368,el alto,-4.2714,-81.2147,302.96,77,83,3.82,PE,1680384867
369,bulungu,-4.55,18.6,295.08,94,100,1.18,CD,1680384867
370,claveria,18.6074,121.0832,297.4,89,5,0.91,PH,1680384867
371,comodoro rivadavia,-45.8667,-67.5,295.07,23,0,10.8,AR,1680384867
372,hervey bay,-25.2986,152.8535,294.82,57,100,2.79,AU,1680384617
373,tiznit,29.5833,-9.5,295.57,30,0,0.87,MA,1680384868
374,pochutla,15.7432,-96.4661,305.05,50,59,4.04,MX,1680384868
375,along,28.1667,94.7667,288.93,96,93,0.46,IN,1680384868
376,bud,39.447,-86.1758,279.12,86,100,7.41,US,1680384868
377,ternate,0.8,127.4,299.02,87,100,3.71,ID,1680384662
378,erenhot,43.6475,111.9767,285.63,54,100,8.54,CN,1680384869
379,raymondville,26.4815,-97.7831,305.21,60,99,6.12,US,1680384869
380,pasni,25.2631,63.471,297.16,84,14,3.88,PK,1680384869
381,villarrobledo,39.2699,-2.6012,288.03,53,60,9.95,ES,1680384869
382,conceicao do araguaia,-8.2578,-49.2647,296.8,93,76,1.73,BR,1680384870
383,kamenka,51.3223,42.7678,277.37,82,48,1.12,RU,1680384870
384,sistranda,63.7256,8.834,272.13,69,32,7.49,NO,1680384870
385,prince rupert,54.3161,-130.3201,277.2,93,75,9.26,CA,1680384870
386,igarka,67.4667,86.5833,268.92,95,100,11.26,RU,1680384870
387,waingapu,-9.6567,120.2641,298.33,83,81,1.18,ID,1680384871
388,hami,42.8,93.45,273.82,24,100,4.64,CN,1680384871
389,kuala terengganu,5.3302,103.1408,297.5,92,100,2.36,MY,1680384871
390,kunming,25.0389,102.7183,286.11,62,0,5.0,CN,1680384871
391,saint anthony,45.0205,-93.218,276.11,58,0,1.54,US,1680384871
392,bonthe,7.5264,-12.505,299.06,88,67,2.67,SL,1680384872
393,punta de bombon,-17.1717,-71.7931,296.71,81,89,1.61,PE,1680384872
394,shakawe,-18.3667,21.85,293.88,75,70,2.12,BW,1680384872
395,santa rosa,14.3122,121.1114,300.14,83,99,0.56,PH,1680384787
396,lompoc,34.6391,-120.4579,294.83,62,0,9.39,US,1680384873
397,mount isa,-20.7333,139.5,295.02,40,98,3.09,AU,1680384641
398,gazanjyk,39.2446,55.5154,281.37,78,96,7.67,TM,1680384874
399,kungurtug,50.5994,97.5228,257.86,97,100,0.44,RU,1680384874
400,pascagoula,30.3658,-88.5561,300.77,96,75,2.06,US,1680384874
401,imeni poliny osipenko,52.4201,136.4853,270.68,88,41,1.37,RU,1680384874
402,genhe,50.7833,121.5167,272.83,97,53,1.99,CN,1680384874
403,podgornoye,51.735,39.1496,279.27,81,100,3.0,RU,1680384875
404,lengshuitan,26.4111,111.5956,292.96,92,79,0.84,CN,1680384875
405,kapuskasing,49.4169,-82.4331,269.2,42,20,7.2,CA,1680384602
406,henties bay,-22.116,14.2845,288.81,92,5,2.02,NA,1680384875
407,naifaru,5.4444,73.3657,301.24,66,58,3.07,MV,1680384875
408,itamaraju,-17.0392,-39.5311,297.89,81,37,2.98,BR,1680384618
409,flinders,-34.5833,150.8552,288.81,90,97,0.89,AU,1680384876
410,la ronge,55.1001,-105.2842,271.29,64,100,7.72,CA,1680384617
411,coquimbo,-29.9533,-71.3436,293.0,68,0,5.14,CL,1680384598
412,dongkan,33.9997,119.8308,281.21,60,0,2.99,CN,1680384876
413,lazaro cardenas,17.9583,-102.2,302.81,44,38,4.81,MX,1680384877
414,zongozotla,19.9833,-97.7333,297.91,71,68,2.15,MX,1680384877
415,yulara,-25.2406,130.9889,288.6,75,39,3.08,AU,1680384877
416,karakol,42.4907,78.3936,274.91,26,0,2.89,KG,1680384877
417,ailigandi,9.2333,-78.0167,299.3,85,100,6.19,PA,1680384877
418,gao,16.6362,1.637,299.49,11,87,5.48,ML,1680384878
419,nogales,31.3086,-110.9422,297.91,7,0,6.17,MX,1680384654
420,borogontsy,62.6683,131.1683,253.07,91,13,3.66,RU,1680384878
421,umm lajj,25.0213,37.2685,293.93,49,0,5.02,SA,1680384878
422,beckley,37.7782,-81.1882,292.38,22,75,11.32,US,1680384878
423,naze,28.3667,129.4833,288.66,80,29,10.6,JP,1680384879
424,kandrian,-6.2167,149.55,299.6,83,100,1.37,PG,1680384879
425,moron,-34.6534,-58.6198,295.33,69,12,2.99,AR,1680384879
426,sao paulo de olivenca,-3.3783,-68.8725,297.53,97,94,1.23,BR,1680384879
427,kudahuvadhoo,2.6708,72.8944,300.73,72,36,1.59,MV,1680384880
428,autazes,-3.5797,-59.1306,296.48,99,100,0.22,BR,1680384880
429,nemuro,43.3236,145.575,273.82,80,23,7.64,JP,1680384880
430,nouakchott,18.0858,-15.9785,302.11,30,0,4.53,MR,1680384880
431,miles city,46.4083,-105.8406,287.69,28,100,6.69,US,1680384881
432,bairiki,1.3292,172.9752,301.15,78,75,3.6,KI,1680384881
433,jijiga,9.35,42.8,292.66,75,100,2.26,ET,1680384881
434,san ignacio,17.1561,-89.0714,308.23,38,40,4.12,BZ,1680384881
435,oranjemund,-28.55,16.4333,289.24,95,4,3.05,NA,1680384882
436,terme,41.2092,36.9739,282.11,74,99,2.46,TR,1680384882
437,bima,-8.4667,118.7167,296.99,94,94,0.48,ID,1680384882
438,olinda,-8.0089,-34.8553,302.0,65,20,3.09,BR,1680384882
439,felanitx,39.4696,3.1483,289.44,80,44,5.76,ES,1680384883
440,quatre cocos,-20.2078,57.7625,298.21,79,12,3.17,MU,1680384883
441,voh,-20.9667,164.7,301.08,71,13,0.62,NC,1680384883
442,nichlaul,27.3167,83.7333,291.26,63,5,1.52,IN,1680384884
443,aksha,50.2814,113.2867,266.81,84,100,5.2,RU,1680384884
444,muskegon,43.3,-86.1334,277.21,69,100,9.26,US,1680384884
445,portadown,54.4241,-6.4412,282.05,95,100,3.87,GB,1680384884
446,sabang,5.8933,95.3214,300.83,74,97,3.22,ID,1680384885
447,puerto madero,14.7208,-92.4215,305.26,66,75,6.69,MX,1680384885
448,acarau,-2.8856,-40.12,299.15,81,100,3.31,BR,1680384708
449,alice springs,-23.7,133.8833,289.9,94,100,0.0,AU,1680384885
450,haverfordwest,51.8017,-4.9691,281.51,89,87,0.89,GB,1680384885
451,altay,47.8667,88.1167,263.57,52,99,4.22,CN,1680384886
452,yar-sale,66.8333,70.8333,274.03,99,100,7.73,RU,1680384886
453,apollonia,36.9716,24.7231,287.79,86,100,12.7,GR,1680384886
454,palmas,-10.2128,-48.3603,301.08,78,40,0.0,BR,1680384887
455,kloulklubed,7.0419,134.2556,296.43,72,76,1.11,PW,1680384887
456,mehamn,71.0357,27.8492,270.12,68,100,11.83,NO,1680384887
457,pahrump,36.2083,-115.9839,293.68,16,2,4.47,US,1680384612
458,thinadhoo,0.5333,72.9333,300.62,76,97,1.89,MV,1680384887
459,lakes entrance,-37.8811,147.981,282.68,70,8,2.36,AU,1680384888
460,codrington,-38.2667,141.9667,285.2,72,57,0.83,AU,1680384888
461,thurso,58.5927,-3.5259,278.29,89,14,4.45,GB,1680384888
462,faya,18.3851,42.4509,288.21,85,77,2.71,SA,1680384888
463,tura,25.5198,90.2201,289.64,94,88,0.85,IN,1680384889
464,berlevag,70.8578,29.0864,270.15,68,100,11.83,NO,1680384889
465,yerofey pavlovich,53.9667,121.9667,265.53,63,100,2.78,RU,1680384889
466,peterborough,52.5736,-0.2478,280.57,87,100,5.66,GB,1680384860
467,nanhai,30.1282,111.7784,289.73,82,10,2.26,CN,1680384890
468,semey,50.4111,80.2275,267.23,47,4,7.79,KZ,1680384890
469,preobrazheniye,42.9019,133.9064,276.21,62,16,1.46,RU,1680384890
470,bubaque,11.2833,-15.8333,298.5,75,1,8.42,GW,1680384890
471,polunochnoye,60.8697,60.4153,274.07,86,92,3.51,RU,1680384890
472,mbanza-ngungu,-5.25,14.8667,293.23,99,100,2.45,CD,1680384891
473,namatanai,-3.6667,152.4333,299.71,77,100,1.98,PG,1680384891
474,sorland,67.667,12.6934,275.07,57,17,4.23,NO,1680384891
475,dargaville,-35.9333,173.8833,292.7,84,100,1.42,NZ,1680384891
476,krasnoarmeysk,51.0239,45.6969,279.97,61,100,0.72,RU,1680384891
477,chapais,49.7834,-74.8492,271.03,89,100,7.41,CA,1680384763
478,pasan,22.85,82.2,293.09,50,4,1.4,IN,1680384892
479,son la,21.3167,103.9,292.44,61,1,1.46,VN,1680384892
480,talnakh,69.4865,88.3972,265.49,94,100,8.47,RU,1680384892
481,san andres,12.5847,-81.7006,303.16,62,100,7.72,CO,1680384893
482,mandalgovi,45.7625,106.2708,261.59,81,100,10.95,MN,1680384893
483,sosnovo-ozerskoye,52.5249,111.5418,264.67,34,100,5.14,RU,1680384893
484,tabuk,17.4189,121.4443,295.04,94,22,0.87,PH,1680384893
485,venado tuerto,-33.7456,-61.9688,288.67,61,37,3.44,AR,1680384893
486,maceio,-9.6658,-35.7353,299.84,83,0,3.6,BR,1680384845
487,mweka,-4.85,21.5667,293.19,98,85,0.94,CD,1680384894
488,tazovskiy,67.4667,78.7,273.89,98,100,8.01,RU,1680384894
489,torbat-e jam,35.244,60.6225,287.14,67,100,2.68,IR,1680384894
490,san jose,37.3394,-121.895,292.79,45,20,4.63,US,1680384424
491,caravelas,-17.7125,-39.2481,299.29,78,0,3.96,BR,1680384895
492,zaraza,9.3503,-65.3245,299.94,66,100,4.51,VE,1680384895
493,ouesso,1.6136,16.0517,296.75,67,25,1.03,CG,1680384895
494,la asuncion,11.0333,-63.8628,300.0,74,95,8.23,VE,1680384895
495,safaga,26.7292,33.9365,292.84,41,0,6.36,EG,1680384895
496,saint-joseph,-21.3667,55.6167,297.36,83,29,4.48,RE,1680384896
497,grand-santi,4.25,-54.3833,295.6,96,73,1.34,GF,1680384896
498,tuy hoa,13.0833,109.3,294.93,88,72,1.36,VN,1680384896
499,ocumare del tuy,10.1165,-66.7761,301.82,63,95,2.47,VE,1680384896
500,qusar,41.4273,48.4289,273.2,79,99,2.0,AZ,1680384896
501,houma,29.5958,-90.7195,303.16,69,40,6.17,US,1680384765
502,dunedin,-45.8742,170.5036,289.15,72,49,4.02,NZ,1680384718
503,sedro-woolley,48.5039,-122.2361,283.25,69,40,5.66,US,1680384846
504,antalaha,-14.9003,50.2788,297.04,88,59,2.09,MG,1680384897
505,labuan,5.2767,115.2417,297.35,94,20,0.0,MY,1680384897
506,stornoway,58.2093,-6.3865,280.33,89,75,6.17,GB,1680384897
507,aberdeen,57.1437,-2.0981,277.42,91,75,0.0,GB,1680384898
508,tinskoy,56.1525,96.9161,255.26,99,44,1.33,RU,1680384898
509,bang saphan,11.2126,99.5117,296.74,89,34,1.76,TH,1680384898
510,nara,34.6851,135.8049,286.2,30,94,2.33,JP,1680384898
511,cileungsi,-6.3947,106.9592,298.38,94,20,1.54,ID,1680384898
512,vestmannaeyjar,63.4427,-20.2734,278.93,61,100,9.32,IS,1680384899
513,boddam,57.4667,-1.7833,277.36,72,98,3.94,GB,1680384899
514,sai buri,6.7013,101.6168,297.33,91,66,1.77,TH,1680384899
515,dillon,34.4166,-79.3712,298.85,57,69,8.75,US,1680384899
516,dubti,11.7361,41.0853,302.73,57,57,3.7,ET,1680384900
517,igrim,63.1906,64.4162,275.04,96,100,4.97,RU,1680384900
518,hamilton,39.1834,-84.5333,279.75,73,100,11.83,US,1680384787
519,mangrol,21.1167,70.1167,296.85,78,36,3.98,IN,1680384900
520,vao,-22.6667,167.4833,298.82,83,24,4.91,NC,1680384901
521,mauguio,43.6181,4.0074,284.09,60,0,7.2,FR,1680384901
522,taybad,34.74,60.7756,285.77,72,80,7.73,IR,1680384901
523,fuerte olimpo,-21.0415,-57.8738,302.55,51,7,2.1,PY,1680384902
524,sioux lookout,50.1001,-91.917,275.19,27,40,3.09,CA,1680384618
525,omsukchan,62.5333,155.8,264.16,93,100,0.63,RU,1680384902
526,la paz,-16.5,-68.15,287.14,43,75,5.14,BO,1680384608
527,mekhe,15.1097,-16.6218,298.63,29,0,5.35,SN,1680384903
528,wronki,52.7105,16.3804,278.96,83,100,5.46,PL,1680384903
529,jerez,14.1,-89.75,307.4,15,0,1.03,GT,1680384903
530,terra rica,-22.7094,-52.6169,297.07,81,2,3.04,BR,1680384903
531,eyl,7.9803,49.8164,300.18,78,40,2.56,SO,1680384904
532,vardo,70.3705,31.1107,270.14,86,100,12.35,NO,1680384904
533,capoterra,39.1763,8.9718,286.03,78,0,4.12,IT,1680384905
534,payo,-3.7508,103.6372,294.77,97,100,0.72,ID,1680384905
535,tambovka,50.0969,128.0489,280.17,55,99,3.77,RU,1680384905
536,ntchisi,-13.5278,33.9149,287.59,98,100,1.17,MW,1680384906
537,lewiston,44.1003,-70.2148,279.98,93,100,2.57,US,1680384906
538,domoni,-12.2569,44.5319,300.31,86,99,4.2,KM,1680384906
539,linqu,36.5156,118.5397,282.63,48,0,2.58,CN,1680384908
540,cockburn town,21.4612,-71.1419,300.13,61,40,6.17,TC,1680384908
541,saint-augustin,51.226,-58.6502,272.02,80,69,3.96,CA,1680384908
542,xuddur,4.1213,43.8894,300.38,59,81,7.0,SO,1680384908
543,abu samrah,35.3029,37.1841,282.71,88,47,4.0,SY,1680384909
544,camacari,-12.6975,-38.3242,301.02,83,3,3.0,BR,1680384909
545,the valley,18.217,-63.0578,299.23,73,40,7.2,AI,1680384910
546,vostok,46.4856,135.8833,273.95,62,28,1.55,RU,1680384910
547,yenagoa,4.9247,6.2642,298.02,90,93,2.14,NG,1680384910
548,finschhafen,-6.6024,147.8681,299.78,78,100,2.85,PG,1680384910
